
[

    {
        "id": 0,
        "name": "Cashman Center",
        "state": "Nevada",
        "vaccAvailable": 5,
        "waiting": 9,
        "coordinates": {
            "latitude": 36.179669540211975,
            "longitude": -115.13138890197307
        }
    },
    
    {
        "id": 1,
        "name": "A",
        "state": "California",
        "vaccAvailable": 2,
        "waiting": 7,
        "coordinates": {
             "latitude": -0.5,
             "longitude": 90
         }
    },
    {
        "id": 2,
        "name": "Cashman Center",
        "state": "Nevada",
        "vaccAvailable": 5,
        "waiting": 9,
        "coordinates": {
            "latitude": 36.179669540211975,
            "longitude": -115.13138890197307
        }
    },
    
    {
        "id": 3,
        "name": "A",
        "state": "California",
        "vaccAvailable": 2,
        "waiting": 7,
        "coordinates": {
             "latitude": -0.5,
             "longitude": 90
         }
    },
    {
        "id": 4,
        "name": "Cashman Center",
        "state": "Nevada",
        "vaccAvailable": 5,
        "waiting": 9,
        "coordinates": {
            "latitude": 36.179669540211975,
            "longitude": -115.13138890197307
        }
    },
    
    {
        "id": 5,
        "name": "A",
        "state": "California",
        "vaccAvailable": 2,
        "waiting": 7,
        "coordinates": {
             "latitude": -0.5,
             "longitude": 90
         }
    },
    {
        "id": 6,
        "name": "Cashman Center",
        "state": "Nevada",
        "vaccAvailable": 5,
        "waiting": 9,
        "coordinates": {
            "latitude": 36.179669540211975,
            "longitude": -115.13138890197307
        }
    },
    
    {
        "id": 7,
        "name": "A",
        "state": "California",
        "vaccAvailable": 2,
        "waiting": 7,
        "coordinates": {
             "latitude": -0.5,
             "longitude": 90
         }
    },
    {
        "id": 8,
        "name": "Cashman Center",
        "state": "Nevada",
        "vaccAvailable": 5,
        "waiting": 9,
        "coordinates": {
            "latitude": 36.179669540211975,
            "longitude": -115.13138890197307
        }
    },
    
    {
        "id": 9,
        "name": "A",
        "state": "California",
        "vaccAvailable": 2,
        "waiting": 7,
        "coordinates": {
             "latitude": -0.5,
             "longitude": 90
         }
    }

]
